{
    "fields": [
        {
            "id": 1,
            "name": "מגרש קרית שלום - מכבי תל אביב",
            "city": "tel-aviv",
            "address": "צומת חולון, תל אביב-יפו",
            "coordinates": [
                34.775024,
                32.038194                
            ]
        },
        {
            "id": 2,
            "name": "מגרש וולפסון",
            "city": "tel-aviv",
            "address": "מסוף וולפסון, תל אביב-יפו",
            "coordinates": [
                34.762854,
                32.037597
            ]
        },
        {
            "id": 3,
            "name": "ספורטק תל אביב",
            "city": "tel-aviv",
            "address": "שדרות רוקח 40, תל אביב-יפו",
            "coordinates": [
                34.788854,
                32.098394
            ]
        },
        {
            "id": 4,
            "name": "ספורטק הרצליה",
            "city": "herzliya",
            "address": "יוסף נבו, הרצליה",
            "coordinates": [
                34.826498,
                32.169998
            ]
        }
    ]
}